{
  "videsh_data": [
    {
      "Country": "USA",
      "Desh": "America",
      "State": "Haryana",
      "Rajya": "हरयाणा",
      "District": "Gurgaon",
      "Jilla": "गुडगाँव",
      "City": "Gurugram",
      "Shahar": "गुरुग्राम",
      "Name": "Shri 1008 Mallinath Digamber Jain Mandir, DLF Phase IV, Sector 43, Gurugram (Haryana)",
      "Naam": "श्री 1008 मल्लीनाथ दिगंबर जैन मंदिर, डीएलएफ फेज IV, सेक्टर 43, गुरुग्राम (हरियाणा)",
      "Address": "Shri 1008 Mallinath Digamber Jain Mandir, DLF Phase IV, Sector 43, Gurugram (Haryana)",
      "Phone": "",
      "Sampark": "",
      "Zip code": "122002",
      "Latitude": "28.4610786",
      "Longitude": "77.0226256"
    },
    {
      "Country": "Canada",
      "Desh": "Canada",
      "State": "Haryana",
      "Rajya": "हरयाणा",
      "District": "Gurgaon",
      "Jilla": "गुडगाँव",
      "City": "Sector 15",
      "Shahar": "सेक्टर 15",
      "Name": "Shri 1008 Muni Suvratnath Digamber Jain Mandir, Sector 15 Part 1,Gurugram (Haryana)",
      "Naam": "श्री 1008 मुनि सुव्रतनाथ दिगम्बर जैन मंदिर, सेक्टर 15 पार्ट 1, गुरूग्राम (हरियाणा)",
      "Address": "Shri 1008 Muni Suvratnath Digamber Jain Mandir, House no 527, Sector 15 Part 1, Gurugram (Haryana)",
      "Phone": "",
      "Sampark": "",
      "Zip code": "122001",
      "Latitude": "28.4508469",
      "Longitude": "77.0335921"
    },
    {
      "Country": "Australia",
      "Desh": "Australia",
      "State": "West Bengal",
      "Rajya": "पश्चिम बंगाल",
      "District": "Puruliya",
      "Jilla": "पुरुलिया",
      "City": "Pakbirra",
      "Shahar": "पाकबिर्रा",
      "Name": "Shri 1008 Digambar Jain Atishaya Kshetra, Pakbira, District-Purulia (West Bengal)",
      "Naam": "श्री 1008 दिगंबर जैन अतिशय क्षेत्र, पाकबीरा, जिला-पुरुलिया (पश्चिम बंगाल)",
      "Address": "Shri 1008 Digambar Jain Atishaya Kshetra, Pakbira, District-Purulia (West Bengal)",
      "Phone": "",
      "Sampark": "",
      "Zip code": "723151",
      "Latitude": "23.1588625",
      "Longitude": "86.6789661"
    }
  ]
} 